City_ID,City,Lat,Lng,Max Temp,Humidity,Cloudiness,Wind Speed,Country,Date
0,port-aux-francais,-49.35,70.2167,3.6,81,100,16.25,TF,1691444815
1,grytviken,-54.2811,-36.5092,-6.35,82,67,4.4,GS,1691444815
2,sarmiento,-45.5882,-69.07,6.49,56,100,1.95,AR,1691444815
3,afaahiti,-17.75,-149.2833,27.93,79,97,5.51,PF,1691444815
4,taoudenni,22.6783,-3.9836,40.53,17,0,4.44,ML,1691444815
5,puerto ayora,-0.7393,-90.3518,29.98,85,86,3.58,EC,1691444816
6,strezhevoy,60.7333,77.5889,12.7,92,66,2.48,RU,1691444816
7,bilibino,68.0546,166.4372,5.8,72,64,1.84,RU,1691444816
8,kharp,66.8014,65.8081,16.07,95,8,3.23,RU,1691444816
9,hermanus,-34.4187,19.2345,13.78,83,0,2.31,ZA,1691444816
10,primorsk,46.7348,36.3443,22.6,58,0,4.72,UA,1691444816
11,pauini,-7.7136,-66.9764,33.26,37,64,1.18,BR,1691444816
12,bethel,41.3712,-73.414,25.2,86,100,2.06,US,1691444817
13,taro,-8.3862,115.28,19.0,84,74,0.3,ID,1691444817
14,bubaque,11.2833,-15.8333,27.36,82,100,4.81,GW,1691444817
15,codrington,-38.2667,141.9667,4.99,94,6,2.8,AU,1691444817
16,west livingston,30.6983,-95.0019,40.03,43,26,1.34,US,1691444817
17,punta arenas,-53.15,-70.9167,1.78,86,100,2.25,CL,1691444543
18,invercargill,-46.4,168.35,6.12,82,84,2.68,NZ,1691444817
19,adamstown,-25.066,-130.1015,20.55,73,71,3.41,PN,1691444817
20,isafjordur,66.0755,-23.124,11.96,62,45,1.29,IS,1691444818
21,nishinoomote,30.7333,131.0,27.14,90,100,20.38,JP,1691444818
22,andergrove,-21.0833,149.1833,17.58,80,17,5.72,AU,1691444818
23,morehead city,34.7229,-76.726,32.01,82,0,9.26,US,1691444810
24,richards bay,-28.783,32.0377,16.79,93,6,1.8,ZA,1691444818
25,sidi aissa,35.8855,3.7724,26.5,43,0,3.31,DZ,1691444818
26,enewetak,11.3474,162.3373,26.3,87,100,5.45,MH,1691444818
27,waitangi,-43.9535,-176.5597,9.34,71,100,6.19,NZ,1691444819
28,thompson,55.7435,-97.8558,19.09,55,75,3.6,CA,1691444819
29,ilulissat,69.2167,-51.1,11.01,50,20,1.54,GL,1691444819
30,ketchikan,55.3422,-131.6461,16.26,94,100,6.69,US,1691444819
31,constantia,44.1833,28.65,20.39,51,0,2.47,RO,1691444819
32,preobrazheniye,42.9019,133.9064,17.33,79,95,6.23,RU,1691444819
33,whitehorse,60.7161,-135.0538,23.9,41,75,4.63,CA,1691444587
34,asau,46.4333,26.4,16.51,76,61,2.13,RO,1691444819
35,pisco,-13.7,-76.2167,21.03,73,75,5.66,PE,1691444820
36,lazaro cardenas,17.9583,-102.2,32.08,61,7,5.8,MX,1691444820
37,drammen,59.7439,10.2045,16.55,97,100,2.53,NO,1691444717
38,impfondo,1.6381,18.0667,21.18,96,100,0.56,CG,1691444820
39,anna regina,7.2644,-58.5077,28.07,77,22,3.58,GY,1691444820
40,blackmans bay,-43.0167,147.3167,5.85,92,27,2.61,AU,1691444820
41,bereznik,62.8551,42.7072,13.34,85,0,2.38,RU,1691444820
42,karwar,14.8,74.1333,25.13,87,100,3.24,IN,1691444821
43,lompoc,34.6391,-120.4579,26.03,74,100,3.6,US,1691444821
44,jamestown,42.097,-79.2353,22.77,91,100,4.12,US,1691444629
45,nacala,-14.5428,40.6728,21.0,87,2,3.51,MZ,1691444821
46,la passe,45.5549,-0.8967,18.32,76,2,3.81,FR,1691444821
47,longyearbyen,78.2186,15.6401,7.91,87,75,3.09,SJ,1691444821
48,yellowknife,62.456,-114.3525,20.29,42,40,4.92,CA,1691444703
49,vorgashor,67.5833,63.95,10.87,93,26,3.9,RU,1691444821
50,puerto natales,-51.7236,-72.4875,0.05,88,100,0.88,CL,1691444822
51,edinburgh of the seven seas,-37.0676,-12.3116,13.71,78,72,15.29,SH,1691444822
52,saipan,15.1355,145.701,26.47,100,40,0.0,MP,1691444822
53,khemisset,33.6667,-6.25,29.18,48,100,2.68,MA,1691444822
54,bayganin,48.6947,55.8742,23.87,49,16,2.4,KZ,1691444822
55,west end,26.6833,-78.9667,31.99,73,6,3.65,BS,1691444822
56,imeko,7.45,2.85,22.33,96,51,2.86,NG,1691444823
57,bredasdorp,-34.5322,20.0403,10.06,87,0,2.34,ZA,1691444823
58,lihue,21.9789,-159.3672,28.58,85,75,7.72,US,1691444823
59,avarua,-21.2078,-159.775,24.03,69,88,3.09,CK,1691444824
60,ylojarvi,61.5563,23.5961,24.95,74,0,6.26,FI,1691444824
61,muroto-misakicho,33.2833,134.15,27.35,91,99,10.96,JP,1691444824
62,margaret river,-33.95,115.0667,15.31,88,98,9.81,AU,1691444824
63,iskenderun,36.5872,36.1735,28.46,86,12,2.88,TR,1691444824
64,novyy urengoy,66.0833,76.6333,16.38,60,27,2.74,RU,1691444825
65,yanbu,24.0891,38.0637,31.02,74,0,1.03,SA,1691444825
66,ancud,-41.8697,-73.8203,8.69,81,100,2.43,CL,1691444825
67,chonchi,-42.6128,-73.8092,12.56,90,99,0.66,CL,1691444825
68,petropavlovsk-kamchatsky,53.0452,158.6483,14.33,77,0,3.0,RU,1691444825
69,coahuayana de hidalgo,18.7,-103.6583,33.31,54,5,3.14,MX,1691444825
70,letterkenny,54.95,-7.7333,12.94,94,27,1.38,IE,1691444826
71,az zuwaytinah,30.9522,20.1202,26.33,66,0,6.79,LY,1691444826
72,dudinka,69.4058,86.1778,15.9,70,86,2.6,RU,1691444826
73,brookings,44.3114,-96.7984,25.66,51,0,2.57,US,1691444826
74,laguna,38.421,-121.4238,40.3,26,0,3.09,US,1691444826
75,udachny,66.4167,112.4,14.14,54,98,2.02,RU,1691444827
76,betio village,1.358,172.9211,29.02,72,61,3.41,KI,1691444827
77,urengoy,65.9667,78.3667,14.26,78,71,3.35,RU,1691444827
78,guerrero negro,27.9769,-114.0611,32.6,47,0,5.59,MX,1691444723
79,praia da vitoria,38.7333,-27.0667,24.14,83,40,2.84,PT,1691444827
80,staryye ozinki,51.1786,49.6769,23.13,46,0,2.53,RU,1691444828
81,kodiak,57.79,-152.4072,13.73,94,100,3.6,US,1691444828
82,west island,-12.1568,96.8225,24.99,88,40,4.63,CC,1691444828
83,carutapera,-1.195,-46.02,25.45,88,62,3.09,BR,1691444828
84,newman,37.3138,-121.0208,40.59,9,0,4.88,US,1691444828
85,khanty-mansiysk,61.0042,69.0019,15.06,82,1,0.0,RU,1691444828
86,chibuto,-24.6867,33.5306,15.26,92,1,2.25,MZ,1691444828
87,nar'yan-mar,67.6713,53.087,6.41,96,13,3.27,RU,1691444829
88,erenhot,43.6475,111.9767,23.99,45,9,3.68,CN,1691444829
89,vila velha,-20.3297,-40.2925,23.97,85,0,6.69,BR,1691444829
90,jiwani,25.05,61.7417,27.19,86,27,3.83,PK,1691444829
91,vilyuchinsk,52.9306,158.4028,15.15,70,0,3.75,RU,1691444829
92,xuddur,4.1213,43.8894,21.9,76,86,8.36,SO,1691444829
93,grants,35.1473,-107.8514,31.13,16,0,5.66,US,1691444829
94,konstantinovka,49.6167,127.9833,17.13,71,95,1.51,RU,1691444830
95,omuo-ekiti,7.7583,5.7223,21.13,98,100,2.6,NG,1691444830
96,port elizabeth,-33.918,25.5701,15.16,94,0,2.57,ZA,1691444830
97,waingapu,-9.6567,120.2641,23.17,85,3,6.45,ID,1691444830
98,kruisfontein,-34.0033,24.7314,12.16,77,0,2.37,ZA,1691444830
99,egilsstadir,65.2653,-14.3948,8.95,71,0,3.6,IS,1691444830
100,monrovia,6.3005,-10.7969,24.87,89,100,3.84,LR,1691444831
101,makarov,48.6333,142.8,16.81,70,100,1.94,RU,1691444831
102,flying fish cove,-10.4217,105.6791,23.82,94,75,4.63,CX,1691444831
103,south hedland,-20.4089,118.5983,15.96,67,6,3.09,AU,1691444831
104,mata-utu,-13.2816,-176.1745,27.57,75,12,3.34,WF,1691444831
105,doganhisar,38.1463,31.6765,22.05,38,0,0.68,TR,1691444831
106,haiku-pauwela,20.9219,-156.3051,30.09,57,20,13.38,US,1691444832
107,qaqortoq,60.7167,-46.0333,6.02,83,16,2.16,GL,1691444832
108,plastun,44.7561,136.2939,17.57,66,4,2.4,RU,1691444832
109,iskateley,67.6803,53.1512,6.35,96,12,3.25,RU,1691444725
110,mahina,-17.5065,-149.489,28.87,65,20,4.12,PF,1691444832
111,port mathurin,-19.6833,63.4167,22.91,56,12,8.7,MU,1691444832
112,kiiminki,65.1314,25.7974,23.81,39,16,5.64,FI,1691444833
113,ust-nera,64.5667,143.2,10.22,47,97,2.05,RU,1691444833
114,papatowai,-46.5619,169.4708,5.34,82,100,6.54,NZ,1691444833
115,utrik,11.2278,169.8474,28.25,79,74,9.06,MH,1691444833
116,lebu,-37.6167,-73.65,11.05,82,100,2.73,CL,1691444833
117,sakaiminato,35.55,133.2333,28.96,78,40,2.57,JP,1691444833
118,iqaluit,63.7506,-68.5145,12.61,71,20,2.06,CA,1691444834
119,remire-montjoly,4.9167,-52.2667,28.02,83,57,5.14,GF,1691444834
120,gazli,40.1333,63.45,29.71,25,0,3.88,UZ,1691444834
121,rawson,-43.3002,-65.1023,10.92,44,78,10.91,AR,1691444834
122,black point,-34.6187,137.8972,8.74,75,0,4.07,AU,1691444834
123,bodo,67.28,14.405,16.02,92,75,7.2,NO,1691444737
124,klyuchi,52.2667,79.1667,16.62,49,0,1.37,RU,1691444834
125,port alfred,-33.5906,26.891,15.1,94,6,0.45,ZA,1691444835
126,vila franca do campo,37.7167,-25.4333,22.23,84,53,1.96,PT,1691444835
127,uttar char fasson,22.2332,90.7132,26.37,92,100,4.65,BD,1691444835
128,lycksele,64.5954,18.6735,17.46,100,54,0.0,SE,1691444835
129,sabancuy,18.9667,-91.1833,30.93,67,20,5.33,MX,1691444835
130,kaohsiung,22.6163,120.3133,26.97,96,75,1.03,TW,1691444835
131,salekhard,66.53,66.6019,14.66,94,0,2.73,RU,1691444836
132,polna,49.487,15.7188,12.64,30,100,7.26,CZ,1691444836
133,georgetown,5.4112,100.3354,26.96,84,40,1.54,MY,1691444826
134,sao joao da barra,-21.6403,-41.0511,25.05,86,0,8.4,BR,1691444836
135,manaure,11.7751,-72.4445,32.54,56,12,7.02,CO,1691444836
136,kingston,17.997,-76.7936,35.13,65,75,9.77,JM,1691444704
137,galle,6.0367,80.217,26.29,86,99,5.86,LK,1691444837
138,colonia,50.9333,6.95,15.46,79,0,1.54,DE,1691444837
139,monforte de lemos,42.5216,-7.5142,16.63,78,0,0.83,ES,1691444837
140,tazovsky,67.4667,78.7,12.48,80,20,2.63,RU,1691444837
141,college,64.8569,-147.8028,21.78,70,75,4.63,US,1691444837
142,christchurch,-43.5333,172.6333,7.45,83,54,3.6,NZ,1691444459
143,zhanaozen,43.3,52.8,29.63,28,0,5.29,KZ,1691444838
144,nyurba,63.2842,118.3319,16.64,68,8,2.65,RU,1691444838
145,noumea,-22.2763,166.4572,20.56,99,79,5.24,NC,1691444391
146,tan-tan,28.438,-11.1032,21.08,85,6,4.17,MA,1691444838
147,minas de marcona,-15.2119,-75.1103,15.3,71,9,5.7,PE,1691444838
148,cururupu,-1.8283,-44.8683,24.94,88,49,2.26,BR,1691444839
149,bankim,6.083,11.4905,20.1,99,100,0.62,CM,1691444839
150,tiksi,71.6872,128.8694,8.25,61,58,1.74,RU,1691444839
151,tofol,5.3248,163.0078,27.36,79,82,5.01,FM,1691444839
152,santa vitoria do palmar,-33.5189,-53.3681,9.63,71,0,5.07,BR,1691444839
153,cabo san lucas,22.8909,-109.9124,37.56,65,20,6.17,MX,1691444251
154,barcelos,41.5388,-8.6151,25.47,41,0,2.59,PT,1691444737
155,hasaki,35.7333,140.8333,29.06,86,97,3.52,JP,1691444840
156,tralee,52.2704,-9.7026,13.35,94,100,2.11,IE,1691444840
157,penalva,-3.2942,-45.1736,27.81,63,96,1.46,BR,1691444575
158,bawku,11.0616,-0.2417,22.69,90,99,1.95,GH,1691444840
159,awjilah,29.1081,21.2869,26.16,62,4,7.32,LY,1691444840
160,kavaratti,10.5669,72.642,27.92,75,100,8.48,IN,1691444840
161,great bend,38.3645,-98.7648,30.58,49,40,2.06,US,1691444615
162,lospalos,-8.5186,127.0025,18.74,84,34,2.52,TL,1691444841
163,ath thawrah,35.8469,38.5443,27.35,56,0,10.33,SY,1691444841
164,bonthe,7.5264,-12.505,24.6,92,100,3.04,SL,1691444841
165,new norfolk,-42.7826,147.0587,6.51,95,18,1.41,AU,1691444841
166,shurugwi,-19.6702,30.0059,10.34,52,6,1.29,ZW,1691444842
167,masjed soleyman,31.9364,49.3039,34.63,15,0,0.6,IR,1691444842
168,mount gambier,-37.8333,140.7667,4.19,97,13,1.98,AU,1691444842
169,lorengau,-2.0226,147.2712,27.99,72,98,6.42,PG,1691444842
170,pangody,65.85,74.4859,16.68,66,0,3.93,RU,1691444842
171,cabedelo,-6.9811,-34.8339,25.37,85,1,6.35,BR,1691444842
172,ongjin,37.9347,125.3619,23.49,85,51,3.52,KP,1691444842
173,mount isa,-20.7333,139.5,7.87,81,100,0.0,AU,1691444843
174,hawaiian paradise park,19.5933,-154.9731,28.74,76,20,5.14,US,1691444843
175,myingyan,21.4667,95.3833,25.96,82,100,6.91,MM,1691444843
176,tsiombe,-25.3,45.4833,18.33,79,0,1.53,MG,1691444843
177,hamilton,39.1834,-84.5333,25.69,85,75,5.14,US,1691444636
178,crane,31.3974,-102.3501,41.3,13,34,8.77,US,1691444843
179,fale old settlement,-9.3852,-171.2468,28.06,70,7,6.56,TK,1691444844
180,inhambane,-23.865,35.3833,18.52,83,0,3.6,MZ,1691444844
181,magadan,59.5667,150.8,12.52,49,58,3.07,RU,1691444844
182,blankenberge,51.3131,3.1323,16.64,69,80,0.89,BE,1691444844
183,aasiaat,68.7098,-52.8699,4.04,74,16,3.64,GL,1691444844
184,mahibadhoo,3.7833,72.9667,27.53,79,94,4.77,MV,1691444844
185,namibe,-15.1961,12.1522,17.9,88,47,2.2,AO,1691444845
186,nemuro,43.3236,145.575,15.08,98,100,5.69,JP,1691444845
187,sao jose de ribamar,-2.5619,-44.0542,28.21,82,20,5.95,BR,1691444845
188,albany,42.6001,-73.9662,23.86,90,100,1.34,US,1691444789
189,pazin,45.2403,13.9367,16.96,79,5,2.15,HR,1691444845
190,sitka,57.0531,-135.33,17.94,63,100,3.6,US,1691444846
191,port lincoln,-34.7333,135.8667,9.74,77,0,4.11,AU,1691444846
192,yuzhno-kurilsk,44.0306,145.8556,15.1,98,100,4.22,RU,1691444846
193,naze,28.3667,129.4833,25.51,95,100,10.89,JP,1691444846
194,sretensk,52.2453,117.7093,16.31,63,68,0.85,RU,1691444847
195,bim son,20.0781,105.8603,25.26,89,100,2.44,VN,1691444847
196,acarau,-2.8856,-40.12,26.0,79,43,9.32,BR,1691444795
197,portland,45.5234,-122.6762,30.34,51,40,2.68,US,1691444447
198,kedrovyy,56.1667,91.8167,8.26,75,18,0.92,RU,1691444848
199,divinopolis,-20.1389,-44.8839,21.03,32,2,0.96,BR,1691444848
200,rikaze,29.25,88.8833,15.16,61,100,0.59,CN,1691444848
201,port saint john's,-31.6229,29.5448,17.62,85,14,3.77,ZA,1691444848
202,urangan,-25.3,152.9,16.98,81,68,5.82,AU,1691444849
203,stanley,54.868,-1.6985,12.51,83,0,5.14,GB,1691444849
204,corpus christi,27.8006,-97.3964,37.13,73,20,9.26,US,1691444311
205,pokrovka,42.3414,78.0056,13.09,78,70,0.99,KG,1691444849
206,weno,7.4515,151.8468,27.97,89,100,3.6,FM,1691444850
207,bilajer,40.5681,50.0378,25.9,89,0,3.09,AZ,1691444850
208,viljoenskroon,-27.2084,26.9485,8.85,30,0,0.49,ZA,1691444850
209,alaghsas,17.0187,8.0168,33.2,36,26,2.24,NE,1691444850
210,castillos,-34.1667,-53.8333,8.17,73,0,4.4,UY,1691444850
211,luderitz,-26.6481,15.1594,15.05,73,0,7.09,NA,1691444850
212,margate,51.3813,1.3862,15.49,79,95,2.24,GB,1691444624
213,redcar,54.6166,-1.06,14.18,78,25,4.02,GB,1691444851
214,usinsk,65.9939,57.5281,9.46,86,15,4.84,RU,1691444851
215,ginir,7.1333,40.7,15.94,67,16,5.54,ET,1691444851
216,salinas,36.6777,-121.6555,31.45,63,0,7.72,US,1691444725
217,campo gallo,-26.5833,-62.85,20.84,26,0,4.3,AR,1691444852
218,chemolgan,43.1897,76.5292,17.81,58,64,4.04,KZ,1691444852
219,igrim,63.1906,64.4162,17.2,81,0,3.57,RU,1691444852
220,olonkinbyen,70.9221,-8.7187,4.26,79,3,2.15,SJ,1691444852
221,livingston,55.9029,-3.5226,12.16,82,0,4.12,GB,1691444852
222,timbuktu,16.7735,-3.0074,34.96,33,12,4.43,ML,1691444853
223,labrador city,52.9463,-66.9114,18.95,55,75,1.54,CA,1691444713
224,jishu,44.3167,126.8,17.73,91,99,1.7,CN,1691444853
225,daru,-9.0763,143.2092,24.21,81,83,5.69,PG,1691444853
226,estanzuela,15.0,-89.5667,34.13,52,100,5.14,GT,1691444853
227,fort st. john,56.2499,-120.8529,25.94,47,40,4.12,CA,1691444854
228,palmer,42.1584,-72.3287,22.18,83,100,3.09,US,1691444598
229,satka,55.0425,59.04,15.78,98,33,1.46,RU,1691444854
230,ugoofaaru,5.6667,73.0,27.62,79,100,5.4,MV,1691444854
231,benjamin constant,-4.3831,-70.0311,26.07,83,40,1.54,BR,1691444854
232,cruz del eje,-30.7264,-64.8039,15.06,18,65,4.81,AR,1691444854
233,st. john's,47.5649,-52.7093,17.1,93,100,8.75,CA,1691444807
234,atafu village,-8.5421,-172.5159,28.12,70,10,6.09,TK,1691444854
235,hilo,19.7297,-155.09,28.86,74,20,5.14,US,1691444855
236,kayangel,8.0823,134.7173,27.66,76,100,8.38,PW,1691444855
237,khandyga,62.6667,135.6,15.75,40,9,3.5,RU,1691444855
238,lisala,2.15,21.5167,20.96,96,99,0.68,CD,1691444855
239,rodino,52.5,80.25,15.93,50,0,0.12,RU,1691444855
240,toliara,-23.35,43.6667,19.59,84,6,0.23,MG,1691444855
241,la'ie,21.6477,-157.9253,30.98,72,31,5.81,US,1691444856
242,ushuaia,-54.8,-68.3,1.81,75,0,1.54,AR,1691444856
243,anadyr,64.75,177.4833,11.28,93,75,6.71,RU,1691444856
244,gazojak,41.1875,61.4036,29.55,32,76,4.13,TM,1691444856
245,saldanha,-33.0117,17.9442,13.03,92,0,3.15,ZA,1691444856
246,saudarkrokur,65.7461,-19.6394,10.85,74,84,2.02,IS,1691444856
247,okha,53.5739,142.9478,18.79,66,7,3.57,RU,1691444856
248,tostado,-29.232,-61.7692,17.77,34,0,5.13,AR,1691444857
249,meadow lakes,61.6247,-149.6011,21.69,52,0,0.0,US,1691444857
250,kununurra,-15.7667,128.7333,20.99,32,10,4.63,AU,1691444857
251,cromwell,41.5951,-72.6454,24.67,95,100,4.63,US,1691444857
252,alice springs,-23.7,133.8833,3.75,87,3,0.0,AU,1691444857
253,mugia,43.1041,-9.2179,22.17,78,0,9.8,ES,1691444857
254,tubarjal,30.4999,38.216,28.89,31,0,6.69,SA,1691444857
255,cadale,2.7603,46.3222,24.4,84,92,8.46,SO,1691444858
256,touros,-5.1989,-35.4608,25.04,79,9,6.62,BR,1691444858
257,oriximina,-1.7656,-55.8661,31.27,45,99,0.94,BR,1691444858
258,baruun-urt,46.6806,113.2792,12.66,95,60,2.89,MN,1691444858
259,bejaia,36.7559,5.0843,24.6,69,40,4.12,DZ,1691444858
260,kavieng,-2.5744,150.7967,27.45,74,88,4.35,PG,1691444858
261,mutum,-19.8,-41.4383,21.92,51,0,0.68,BR,1691444858
262,inirida,3.8653,-67.9239,28.03,85,50,1.12,CO,1691444859
263,piton saint-leu,-21.2196,55.3151,20.06,68,75,10.8,RE,1691444859
264,sisimiut,66.9395,-53.6735,8.01,67,20,1.25,GL,1691444859
265,buseresere,-3.0236,31.8747,21.04,48,66,0.72,TZ,1691444859
266,taltal,-25.4,-70.4833,17.38,74,74,2.2,CL,1691444421
267,inari,68.906,27.0288,15.11,92,100,2.25,FI,1691444859
268,rockport,28.0206,-97.0544,34.49,72,0,6.69,US,1691444859
269,keflavik,64.0049,-22.5624,12.95,93,75,1.54,IS,1691444859
270,teluknaga,-6.0989,106.6381,26.67,97,20,1.03,ID,1691444860
271,tolanaro,-25.0319,46.9987,18.04,100,75,5.14,MG,1691444860
272,wailua homesteads,22.0669,-159.378,28.24,89,75,7.72,US,1691444860
273,papao,-17.75,-149.55,28.82,75,87,4.89,PF,1691444860
274,port blair,11.6667,92.75,28.02,83,75,5.14,IN,1691444860
275,vadso,70.0744,29.7487,17.49,82,0,2.57,NO,1691444860
276,uvalde,29.3669,-99.767,40.63,23,0,5.66,US,1691444861
277,east london,-33.0153,27.9116,17.85,85,24,6.76,ZA,1691444649
278,nikolayevsk-on-amure,53.1406,140.73,23.16,47,46,1.64,RU,1691444861
279,den burg,53.0542,4.7972,16.66,74,75,6.69,NL,1691444861
280,ciudad lazaro cardenas,17.9583,-102.2,32.08,61,7,5.8,MX,1691444862
281,dien bien phu,21.3833,103.0167,22.67,100,100,0.88,VN,1691444862
282,sassandra,4.95,-6.0833,24.07,90,66,3.63,CI,1691444862
283,kudahuvadhoo,2.6708,72.8944,27.63,77,96,4.11,MV,1691444862
284,ribeira grande,38.5167,-28.7,23.21,84,1,2.68,PT,1691444862
285,mili,6.0815,171.735,25.2,93,100,3.82,MH,1691444862
286,shangzhi,45.2167,127.9667,16.86,93,78,1.1,CN,1691444862
287,broome,42.2506,-75.833,25.25,81,75,3.58,US,1691444863
288,pacocha,-17.5833,-71.3333,20.08,73,100,5.14,PE,1691444863
289,bokoro,12.3807,17.0568,26.76,72,97,1.82,TD,1691444863
290,leh,34.1667,77.5833,15.48,53,12,2.71,IN,1691444863
291,pemangkat,1.1667,108.9667,24.6,90,55,2.32,ID,1691444863
292,fort mcmurray,56.7268,-111.381,20.77,49,20,3.6,CA,1691444727
293,leninskiy,54.2781,37.4558,21.77,68,62,5.09,RU,1691444863
294,sikonge,-5.6333,32.7667,21.25,47,65,3.74,TZ,1691444863
295,qamdo,31.1667,97.2333,4.92,84,12,1.48,CN,1691444864
296,uturoa,-16.7333,-151.4333,25.75,76,90,3.12,PF,1691444864
297,perth,-31.9333,115.8333,17.59,88,0,3.6,AU,1691444736
298,fuyu,45.1833,124.8167,18.32,94,95,1.13,CN,1691444864
299,molchanovo,57.5817,83.7692,10.82,98,38,1.92,RU,1691444864
300,fallsburg,41.732,-74.6013,24.89,93,98,3.12,US,1691444864
301,xinyu,27.8043,114.9334,26.52,93,99,1.11,CN,1691444657
302,nova sintra,14.8667,-24.7167,22.66,77,96,6.55,CV,1691444865
303,westport,41.1415,-73.3579,26.46,84,100,4.92,US,1691444708
304,vavoua,7.3819,-6.4778,22.12,97,100,0.98,CI,1691444865
305,cruzeiro do sul,-29.5128,-51.9853,14.18,92,100,2.36,BR,1691444865
306,lodja,-3.4833,23.4333,25.88,57,84,2.26,CD,1691444865
307,bykovo,55.6361,38.0803,24.2,68,0,6.0,RU,1691444865
308,jinchang,38.4953,102.1739,22.67,46,41,1.71,CN,1691444865
309,bikenibeu village,1.3673,173.1241,28.98,79,75,4.12,KI,1691444865
310,cuenca,-2.8833,-78.9833,19.07,48,75,4.63,EC,1691444751
311,menaka,15.9182,2.4022,34.3,42,7,4.09,ML,1691444866
312,nagqu,31.5,92.0,6.49,91,100,1.26,CN,1691444866
313,klaksvik,62.2266,-6.589,10.51,78,75,5.11,FO,1691444866
314,tiquipaya,-17.3382,-66.2189,23.4,30,20,11.18,BO,1691444866
315,wagar,16.1525,36.2032,32.44,46,60,4.14,SD,1691444866
316,flin flon,54.7682,-101.865,16.91,67,75,3.6,CA,1691444866
317,ried im innkreis,48.2112,13.4886,13.11,91,100,5.01,AT,1691444867
318,al hufuf,25.3646,49.5653,34.19,8,0,2.06,SA,1691444867
319,satuek,15.297,103.2919,27.27,90,100,3.21,TH,1691444867
320,ust'-ordynskiy,52.805,104.7508,13.35,95,21,1.53,RU,1691444867
321,kuanda,56.3161,116.0806,18.47,64,52,0.62,RU,1691444867
322,tabou,4.423,-7.3528,24.36,90,53,4.06,CI,1691444867
323,yaren,-0.5472,166.916,28.25,70,100,2.23,NR,1691444867
324,la ronge,55.1001,-105.2842,21.12,46,75,5.14,CA,1691444867
325,sinabang,2.4803,96.3801,24.42,95,100,5.02,ID,1691444868
326,peace river,56.2501,-117.286,23.17,64,75,2.57,CA,1691444868
327,shambu,9.5667,37.1,10.39,94,77,0.99,ET,1691444868
328,sebring,27.4956,-81.4409,35.84,57,75,3.13,US,1691444868
329,itoman,26.1247,127.6694,27.21,92,75,10.8,JP,1691444868
330,tomatlan,19.9333,-105.25,36.06,45,21,3.16,MX,1691444868
331,mwene-ditu,-7.0,23.45,25.44,29,19,1.9,CD,1691444868
332,puerto baquerizo moreno,-0.9,-89.6,26.55,69,75,8.75,EC,1691444870
333,sola,-13.8833,167.55,24.82,78,51,6.4,VU,1691444870
334,san martin,-33.081,-68.4681,18.3,19,85,2.17,AR,1691444870
335,taksimo,56.3444,114.8794,17.43,69,20,0.4,RU,1691444870
336,harstad,68.799,16.5293,14.02,100,100,4.92,NO,1691444870
337,gariaband,20.635,82.0614,23.72,87,100,3.61,IN,1691444870
338,dalhart,36.0595,-102.5133,29.01,42,0,5.66,US,1691444870
339,fada,9.5667,8.3,19.45,97,54,0.21,NG,1691444871
340,taseyevo,57.2169,94.8978,13.37,89,38,1.31,RU,1691444871
341,houghton,47.1219,-88.569,26.17,68,0,5.66,US,1691444871
342,barentu,15.1139,37.5928,21.47,83,87,3.26,ER,1691444871
343,strathmore,51.0501,-113.3852,28.81,33,46,4.02,CA,1691444618
344,filingue,14.3521,3.3168,27.67,70,80,7.33,NE,1691444871
345,kyakhta,50.3508,106.4494,14.47,92,33,1.18,RU,1691444871
346,fort-shevchenko,44.5086,50.263,28.34,57,0,3.99,KZ,1691444872
347,kargasok,59.0556,80.8572,10.24,95,6,2.6,RU,1691444872
348,bandar lampung,-5.4254,105.258,22.53,96,74,0.9,ID,1691444872
349,manokwari,-0.8667,134.0833,25.73,76,81,1.84,ID,1691444872
350,darwin,-12.4611,130.8418,21.61,75,0,3.09,AU,1691444872
351,kuta,-8.7233,115.1723,22.97,94,20,4.12,ID,1691444872
352,luena,-11.7833,19.9167,15.58,42,0,1.83,AO,1691444872
353,camacupa,-12.0167,17.4833,16.78,32,0,1.29,AO,1691444872
354,floro,61.5996,5.0328,11.98,76,100,10.8,NO,1691444873
355,balkanabat,39.5108,54.3671,32.51,30,69,2.64,TM,1691444873
356,viedma,-40.8135,-62.9967,6.32,40,7,4.43,AR,1691444873
357,severo-yeniseyskiy,60.3725,93.0408,10.66,87,100,1.47,RU,1691444873
358,buka,40.8108,69.1986,24.06,33,48,3.39,UZ,1691444873
359,new plymouth,-39.0667,174.0833,10.45,75,100,4.56,NZ,1691444583
360,nabire,-3.3667,135.4833,23.92,86,49,1.89,ID,1691444873
361,northam,51.0333,-4.2167,14.1,92,98,4.62,GB,1691444874
362,san patricio,28.017,-97.5169,38.4,43,0,8.22,US,1691444874
363,guane,22.2025,-84.0875,31.16,66,63,0.71,CU,1691444874
364,nadym,65.5333,72.5167,14.86,71,0,5.1,RU,1691444874
365,sarangani,5.4033,125.4636,27.78,77,71,6.03,PH,1691444874
366,eskisehir,39.7767,30.5206,21.93,73,0,4.12,TR,1691444874
367,wynyard,-41.0,145.7167,7.22,82,12,2.4,AU,1691444875
368,queenstown,-31.8976,26.8753,12.77,35,0,2.78,ZA,1691444875
369,hun,29.1268,15.9477,26.7,40,2,4.84,LY,1691444875
370,qui nhon,13.7667,109.2333,26.61,78,22,2.76,VN,1691444875
371,faranah,10.0404,-10.7434,21.8,98,100,1.71,GN,1691444875
372,newmarket,44.0501,-79.4663,24.74,77,100,4.6,CA,1691444875
373,aydarken,39.9443,71.3429,14.98,56,14,3.41,KG,1691444875
374,alta,69.9689,23.2717,16.59,88,75,0.51,NO,1691444876
375,selfoss,63.9331,-20.9971,11.69,85,77,3.16,IS,1691444876
376,geraldton,-28.7667,114.6,17.23,88,92,5.14,AU,1691444876
377,hadibu,12.65,54.0333,25.71,81,46,8.76,YE,1691444876
378,dunedin,-45.8742,170.5036,6.0,72,100,4.47,NZ,1691444811
379,arraial do cabo,-22.9661,-42.0278,21.98,83,0,3.6,BR,1691444876
380,badger,64.8,-147.5333,21.74,67,100,4.63,US,1691444876
381,sur,22.5667,59.5289,30.86,58,3,4.72,OM,1691444877
382,saint-francois,46.4154,3.9054,13.71,77,0,0.0,FR,1691444877
383,saint-memmie,48.9525,4.3841,15.55,87,100,2.17,FR,1691444877
384,dwarka,22.2394,68.9678,27.1,84,99,10.62,IN,1691444877
385,baganga,7.5739,126.56,26.06,77,99,1.98,PH,1691444877
386,tura,25.5198,90.2201,23.52,99,100,0.69,IN,1691444877
387,kailua-kona,19.6406,-155.9956,30.98,62,20,5.66,US,1691444877
388,doaba,33.4244,70.7364,26.19,65,4,1.74,PK,1691444878
389,nantucket,41.2835,-70.0995,23.34,66,100,5.66,US,1691444731
390,kwekwe,-18.9281,29.8149,13.57,49,36,2.77,ZW,1691444878
391,chachersk,52.9164,30.9179,15.95,94,48,4.85,BY,1691444878
392,tadine,-21.55,167.8833,20.6,69,3,4.22,NC,1691444878
393,villamontes,-21.25,-63.5,24.03,36,0,3.1,BO,1691444878
394,caucel,21.0167,-89.7167,36.14,57,29,6.71,MX,1691444878
395,antofagasta,-23.65,-70.4,17.6,81,45,4.12,CL,1691444810
396,saynshand,44.8824,110.1163,19.88,66,12,5.55,MN,1691444879
397,mwinilunga,-11.7358,24.4293,16.48,46,9,1.85,ZM,1691444879
398,laguna larga,-31.7765,-63.801,11.89,28,52,3.08,AR,1691444879
399,liwale,-9.7667,37.9333,19.22,81,21,1.24,TZ,1691444879
400,dryden,49.7833,-92.7503,23.16,49,100,4.12,CA,1691444764
401,cuito,-12.3833,16.9333,14.56,34,0,0.56,AO,1691444879
402,kulunda,52.566,78.9385,16.32,49,1,1.15,RU,1691444879
403,argo,37.6333,22.7333,25.99,62,0,2.47,GR,1691444879
404,zouerate,22.7187,-12.4521,31.31,21,3,4.39,MR,1691444880
405,santanyi,39.3546,3.1291,24.79,62,0,3.21,ES,1691444880
406,karratha,-20.7377,116.8463,19.95,54,2,4.26,AU,1691444880
407,soio,-6.1349,12.3689,21.5,90,70,3.52,AO,1691444880
408,kulhudhuffushi,6.6221,73.07,27.46,79,99,6.32,MV,1691444880
409,tadmur,34.5608,38.2805,26.89,42,0,7.42,SY,1691444682
410,mhamid,29.82,-5.72,37.56,10,41,1.82,MA,1691444880
411,chengde,40.9725,117.9361,21.58,91,96,0.35,CN,1691444683
412,rio preto da eva,-2.6994,-59.6997,33.62,32,74,1.71,BR,1691444881
413,maloye ganyushkino,46.6,49.2667,30.13,33,0,3.04,KZ,1691444881
414,kismayo,-0.3582,42.5454,24.22,83,36,7.34,SO,1691444881
415,tucuma,-0.1833,-50.05,27.03,79,95,4.38,BR,1691444881
416,bruchhausen-vilsen,52.8333,9.0,14.05,82,13,7.37,DE,1691444881
417,trondheim,63.4305,10.3951,13.84,97,100,0.49,NO,1691444866
418,medina,24.4686,39.6142,35.24,10,0,2.57,SA,1691444882
419,ola,59.5833,151.2833,12.86,49,48,5.51,RU,1691444882
420,dazhong,33.1997,120.4578,23.55,88,23,2.33,CN,1691444882
421,chust,41.0094,71.2287,21.66,45,19,3.71,UZ,1691444883
422,smithers,54.7804,-127.1743,26.18,36,75,5.14,CA,1691444883
423,vydrino,51.485,104.8461,12.64,98,94,1.85,RU,1691444883
424,dourados,-22.2211,-54.8056,27.49,35,0,2.03,BR,1691444883
425,ipameri,-17.7219,-48.1597,23.54,29,0,0.89,BR,1691444884
426,coron,11.9986,120.2043,26.91,84,86,4.77,PH,1691444884
427,kolonia town,6.964,158.206,28.06,100,100,1.54,FM,1691444884
428,aars,56.804,9.5144,13.77,80,99,15.09,DK,1691444884
429,bengkulu,-3.8004,102.2655,23.28,92,36,2.16,ID,1691444885
430,ulanhot,46.0833,122.0833,15.31,91,93,2.24,CN,1691444885
431,crossett,33.1282,-91.9612,29.99,77,95,2.22,US,1691444885
432,vytegra,61.0064,36.4481,21.6,83,0,4.3,RU,1691444885
433,kalkaman,51.9525,76.0211,18.81,49,3,3.65,KZ,1691444886
434,ponnani,10.767,75.9252,25.62,87,100,2.79,IN,1691444886
435,nambour,-26.6333,152.95,15.48,91,41,0.45,AU,1691444886
436,huarmey,-10.0681,-78.1522,21.27,73,4,4.6,PE,1691444886
437,luganville,-15.5333,167.1667,23.09,90,100,4.08,VU,1691444886
438,fengcheng,40.4536,124.0717,21.13,88,60,1.44,CN,1691444886
439,chibougamau,49.9168,-74.3659,21.79,56,75,1.54,CA,1691444887
440,urazovo,50.0836,38.0395,21.23,73,1,4.28,RU,1691444887
441,pacific grove,36.6177,-121.9166,28.14,84,0,7.72,US,1691444887
442,tanout,14.9709,8.8879,25.08,72,100,6.29,NE,1691444887
443,cooma,-36.2333,149.1333,2.7,86,4,0.45,AU,1691444888
444,gracemere,-23.4333,150.45,15.95,77,0,2.57,AU,1691444888
445,libreville,0.3925,9.4537,25.01,83,20,3.09,GA,1691444683
446,nuuk,64.1835,-51.7216,6.34,87,20,2.68,GL,1691444888
447,arteche,12.2645,125.4048,26.89,83,11,3.32,PH,1691444888
448,sharqpur sharif,31.4633,74.1,29.07,61,32,1.07,PK,1691444889
449,i-n-salah,27.1935,2.4607,35.71,13,0,5.31,DZ,1691444889
450,cockburn town,21.4612,-71.1419,28.88,87,6,8.89,TC,1691444889
451,wakkanai,45.4094,141.6739,17.83,91,100,4.02,JP,1691444889
452,sligo,54.2697,-8.4694,12.56,83,92,1.59,IE,1691444890
453,arba minch,6.0333,37.55,19.84,66,56,1.76,ET,1691444890
454,guiuan,11.0333,125.7247,28.61,75,27,6.69,PH,1691444890
455,kaka,37.3482,59.6143,28.04,25,25,2.03,TM,1691444891
456,shani,10.2162,12.062,24.07,89,56,1.85,NG,1691444891
457,luanda,-8.8368,13.2343,21.0,88,0,3.09,AO,1691444625
458,neelankarai,12.9455,80.2575,29.46,84,40,4.12,IN,1691444891
459,cambridge,43.3601,-80.3127,23.34,82,100,5.14,CA,1691444641
460,pemalang,-6.9,109.3667,23.74,80,8,2.18,ID,1691444892
461,kerikeri,-35.2268,173.9474,11.06,94,100,0.45,NZ,1691444892
462,leshan,29.5623,103.7639,23.64,95,16,0.44,CN,1691444893
463,grand falls-windsor,48.9332,-55.6649,14.17,88,83,1.34,CA,1691444893
464,antonio enes,-16.2325,39.9086,22.17,78,0,4.6,MZ,1691444893
465,ambon,-3.6954,128.1814,26.6,95,47,7.11,ID,1691444893
466,dodola,6.9833,39.1833,11.44,92,66,1.51,ET,1691444893
467,takaungu,-3.6837,39.8566,23.27,82,2,6.72,KE,1691444894
468,sampit,-2.5333,112.95,21.97,97,99,1.23,ID,1691444894
469,karaton,-6.3424,106.1045,22.17,94,30,0.44,ID,1691444894
470,kondoa,-4.9,35.7833,13.2,84,0,1.52,TZ,1691444894
471,gatesville,31.4352,-97.7439,41.31,24,0,3.09,US,1691444894
472,el nido,11.1858,119.3956,28.03,80,61,7.03,PH,1691444895
473,mjolby,58.326,15.1237,15.84,95,92,3.12,SE,1691444895
474,takoradi,4.8845,-1.7554,24.24,89,8,3.93,GH,1691444666
475,fisterra,42.9049,-9.2629,22.08,72,0,7.33,ES,1691444895
476,kirakira,-10.4544,161.9205,25.38,89,100,3.24,SB,1691444896
477,jeremie,18.65,-74.1167,30.55,71,21,2.41,HT,1691444896
478,shizunai-furukawacho,42.3339,142.3669,20.54,95,100,5.12,JP,1691444864
479,colonie,42.7179,-73.8335,24.17,89,100,5.14,US,1691444718
480,ma'an,26.9775,110.7211,24.86,93,34,0.57,CN,1691444896
481,jackson,42.4165,-122.8345,32.64,32,0,2.57,US,1691444897
482,zaragoza,41.6561,-0.8773,26.0,30,0,2.06,ES,1691444597
483,glen carbon,38.7484,-89.9832,28.63,69,75,5.66,US,1691444716
484,lauro de freitas,-12.8944,-38.3272,26.01,78,40,5.14,BR,1691444897
485,el abiodh sidi cheikh,32.893,0.5484,30.86,12,1,2.03,DZ,1691444898
486,nanning,22.8167,108.3167,26.25,97,87,2.98,CN,1691444810
487,ulladulla,-35.35,150.4667,10.03,78,0,1.56,AU,1691444727
488,gadzhiyevo,69.2551,33.3362,14.76,70,95,4.31,RU,1691444898
489,ulety,51.3572,112.4849,13.49,78,88,0.29,RU,1691444898
490,griffith,41.5284,-87.4237,27.36,64,0,7.2,US,1691444898
491,piti village,13.4626,144.6933,27.95,89,40,1.54,GU,1691444898
492,susuman,62.7833,148.1667,5.34,64,94,1.41,RU,1691444898
493,talnakh,69.4865,88.3972,15.67,61,98,0.71,RU,1691444899
494,saskatoon,52.1168,-106.6345,25.99,34,75,2.57,CA,1691444315
495,moratuwa,6.773,79.8816,28.01,89,100,4.09,LK,1691444899
496,mumbwa,-14.9783,27.0619,16.26,58,24,2.12,ZM,1691444899
497,sinop,41.7711,34.8709,19.09,69,0,1.06,TR,1691444899
498,kupang,-10.1667,123.5833,22.81,74,4,5.21,ID,1691444899
499,guiglo,6.5456,-7.4966,21.99,98,100,1.35,CI,1691444900
500,youghal,51.95,-7.8506,14.56,100,100,2.79,IE,1691444900
501,tamanrasset,22.785,5.5228,29.95,21,20,2.06,DZ,1691444900
502,puerto el triunfo,13.2833,-88.55,37.48,65,100,2.78,SV,1691444900
503,paicandu,-23.4575,-52.0486,26.37,53,75,4.12,BR,1691444900
504,rudnya,54.947,31.0934,15.82,94,98,7.51,RU,1691444901
505,altai,46.3722,96.2583,15.96,38,38,1.78,MN,1691444901
506,vyalikaya byerastavitsa,53.196,24.0166,15.32,65,100,5.82,BY,1691444901
507,al artawiyah,26.5053,45.3444,31.28,12,0,4.27,SA,1691444901
508,katsuura,35.1333,140.3,27.21,86,100,3.67,JP,1691444902
509,nadi,-17.8,177.4167,25.0,78,20,2.06,FJ,1691444902
510,ponta delgada,37.7333,-25.6667,22.4,78,20,2.57,PT,1691444902
511,tazacorte,28.629,-17.9293,23.54,85,100,1.03,ES,1691444902
512,masaka,-0.3338,31.7341,19.43,53,7,0.8,UG,1691444902
513,port moresby,-9.4431,147.1797,19.68,94,20,1.54,PG,1691444902
514,merizo village,13.2658,144.6691,27.77,94,88,1.88,GU,1691444903
515,kristiansund,63.1115,7.732,12.03,93,75,3.6,NO,1691444903
516,saint-cyr-sur-loire,47.4,0.6667,15.14,72,0,0.0,FR,1691444903
517,krasnokamsk,58.0802,55.7541,17.09,92,0,2.21,RU,1691444903
518,mejit,10.2753,170.8646,28.1,79,79,9.08,MH,1691444903
519,conduaga,8.862,117.4893,26.58,86,5,2.75,PH,1691444904
520,pola de lena,43.1609,-5.8288,15.81,85,0,0.86,ES,1691444904
521,egbe,8.2167,5.5167,21.56,96,100,1.88,NG,1691444904
522,panaba,21.2833,-88.2667,34.05,53,42,7.48,MX,1691444904
523,malango,-2.9627,119.9001,17.7,98,32,0.56,ID,1691444904
524,coquimbo,-29.9533,-71.3436,14.85,82,100,3.09,CL,1691444904
525,buston,40.2342,69.6948,25.1,57,75,4.0,TJ,1691444905
526,paracuru,-3.41,-39.0306,27.28,82,88,7.6,BR,1691444897
527,redwood falls,44.5394,-95.1169,28.01,39,20,3.6,US,1691444905
528,biltine,14.5333,20.9167,26.23,73,100,0.91,TD,1691444905
529,ambodifotatra,-16.9833,49.85,22.89,74,61,3.26,MG,1691444905
530,acapulco de juarez,16.8634,-99.8901,31.9,66,20,4.12,MX,1691444660
531,callao,-12.0667,-77.15,21.16,68,100,3.09,PE,1691444906
532,lupane,-18.9315,27.807,13.38,46,65,2.11,ZW,1691444906
533,puerto gaitan,4.3133,-72.0816,30.44,66,70,2.29,CO,1691444906
534,ranchettes,41.2186,-104.7903,19.91,60,0,3.58,US,1691444906
535,midvagur,62.0511,-7.1939,10.46,81,100,4.12,FO,1691444906
536,san antonio de pale,-1.4014,5.6325,22.84,79,56,4.0,GQ,1691444907
537,vryburg,-26.9566,24.7284,8.76,30,0,2.52,ZA,1691444907
538,port-cartier,50.0334,-66.8654,19.86,59,100,1.91,CA,1691444907
539,kugesi,56.029,47.2925,18.81,72,20,2.0,RU,1691444907
540,elesbao veloso,-6.2019,-42.1403,32.71,27,46,4.37,BR,1691444907
541,sabang,5.8933,95.3214,27.24,79,100,9.38,ID,1691444907
542,juigne,47.7188,-0.3941,16.42,87,0,1.03,FR,1691444908
543,narasannapeta,18.4167,84.05,26.96,71,99,3.0,IN,1691444908
544,san julian,21.0167,-102.1667,27.3,34,2,1.81,MX,1691444908
545,alofi,-19.0595,-169.9187,24.94,88,75,4.63,NU,1691444908
546,kapuskasing,49.4169,-82.4331,25.05,50,75,4.12,CA,1691444909
547,illizi,26.4833,8.4667,36.89,14,4,2.59,DZ,1691444909
548,satana,20.5833,74.2,23.15,82,100,6.04,IN,1691444909
549,hopelchen,19.7667,-89.85,38.46,29,62,1.99,MX,1691444909
550,yarmouth,41.7057,-70.2286,24.23,70,100,3.09,US,1691444909
551,barcelona,41.3888,2.159,24.86,78,40,2.57,ES,1691444896
552,las trojes,14.0667,-85.9833,27.24,63,99,2.34,HN,1691444910
553,khorixas,-20.3667,14.9667,19.32,23,0,2.36,NA,1691444910
554,fortuna,40.5982,-124.1573,22.18,81,75,6.17,US,1691444910
555,beledweyne,4.7358,45.2036,24.65,67,100,9.38,SO,1691444910
556,labytnangi,66.6572,66.4183,15.61,93,1,1.17,RU,1691444910
557,khartsyz'k,48.0424,38.1473,24.33,39,0,2.83,UA,1691444910
558,csongrad,46.7133,20.1424,15.19,96,94,5.71,HU,1691444911
559,neryungri,56.6709,124.6491,17.56,70,100,1.1,RU,1691444911
560,goondiwindi,-28.55,150.3167,12.49,73,64,2.59,AU,1691444911
561,kumagunnam,13.1551,10.6342,26.51,72,95,3.34,NG,1691444911
562,gaiman,-43.2897,-65.4929,11.37,37,65,8.26,AR,1691444911
563,al burayqah,30.4062,19.5739,26.73,65,0,7.35,LY,1691444912
564,yung shue wan,22.2333,114.1167,29.76,84,70,5.43,HK,1691444912
565,sao jose da coroa grande,-8.8978,-35.1478,24.13,81,22,4.93,BR,1691444912
566,kourou,5.1552,-52.6478,28.03,83,40,3.63,GF,1691444912
567,puerto ayacucho,5.6639,-67.6236,28.81,80,48,1.34,VE,1691444913
568,saint-philippe,-21.3585,55.7679,21.77,78,89,6.72,RE,1691444913
569,irshava,48.3167,23.0385,11.29,95,66,1.98,UA,1691444913
570,mount pearl,47.5166,-52.7813,16.64,93,100,8.75,CA,1691444913
571,puerto deseado,-47.7503,-65.8938,4.99,79,96,7.29,AR,1691444913
572,brandon,27.9378,-82.2859,35.6,67,40,3.09,US,1691444883
573,muscat,23.6139,58.5922,33.01,56,0,0.89,OM,1691444914
574,mbanza kongo,-6.267,14.2401,21.0,72,47,2.37,AO,1691444914
575,saint-claude,46.5,5.8333,11.77,89,100,1.92,FR,1691444915
576,tangalle,6.024,80.7911,26.09,86,100,5.32,LK,1691444915
577,songea,-10.6833,35.65,15.29,61,48,1.51,TZ,1691444915
578,playa del carmen,20.6274,-87.0799,34.01,79,40,5.14,MX,1691444630
579,belmonte,-15.8631,-38.8828,22.77,82,63,2.93,BR,1691444916
580,harlingen,26.1906,-97.6961,38.05,62,20,8.23,US,1691444916
581,caleta de carquin,-11.0925,-77.6267,20.17,74,11,4.24,PE,1691444916
582,suntar,62.1444,117.6319,17.67,67,23,1.49,RU,1691444916
583,cartagena,10.3997,-75.5144,31.79,74,40,3.6,CO,1691444916
584,assab,13.0092,42.7394,32.55,64,98,8.49,ER,1691444917
585,kapa'a,22.0752,-159.319,28.99,88,75,7.72,US,1691444917
586,shingu,33.7333,135.9833,26.69,94,100,6.01,JP,1691444917
587,bhamo,24.2667,97.2333,23.52,99,100,0.16,MM,1691444917
